deploymentLocationID,longitude,latitude,Organization
Asoprola,-83.00739,9.00615,Altamira_de_Biolley
Finca_Colombianos,-83.0056,9.011675,Altamira_de_Biolley
Finca_El_Campo,-83.04358,9.00378,Altamira_de_Biolley
Finca_Elio,-83.003127,9.009282,Altamira_de_Biolley
Finca_Francis,-82.995936,9.005507,Altamira_de_Biolley
Finca_Hamacas,-82.98604,8.98712,Altamira_de_Biolley
Finca_Marylin,-83.006073,9.011089,Altamira_de_Biolley
Finca_Randall,-83.02095,9.01204,Altamira_de_Biolley
Finca_Selmira,-83.05094,8.98301,Altamira_de_Biolley
Finca_Wilberth,-82.99505,9.01346,Altamira_de_Biolley
Sansi,-83.037332,8.99436,Altamira_de_Biolley
Aprocome,-83.4607,9.27761,Altamira_de_Volcán
Finca_La_Fila,-83.4437,9.28332,Altamira_de_Volcán
Finca_Tepezcuintle,-83.45758,9.28154,Altamira_de_Volcán
Piedra_Tepezcuintle,-83.45965,9.28058,Altamira_de_Volcán
Sendero_Linda_vista,-83.44709,9.28342,Altamira_de_Volcán
Finca_Kattya,-83.03586,9.05415,Biolley
Finca_María_Isabel,-83.03859,9.03844,Biolley
Finca_Monterromo,-83.05788,9.01964,Biolley
Finca_Serracín,-83.03435,9.06281,Biolley
Finca_Vera,-83.05109,9.02317,Biolley
La_Reserva_Asomobi,-83.03903,9.03161,Biolley
Sendero_Asomobi,-83.042,9.03496,Biolley
Cabagra_Huacas_Edmundo,-83.14438,9.12042,Cabagra
Cerro_Pelón,-83.22692,9.17226,Cabagra
Finca_Chano,-83.198812,9.141179,Cabagra
Finca_Juan_Lázaro,-83.2019,9.13682,Cabagra
Sendero_Mayor,-83.19239,9.12976,Cabagra
Sendero_Otilia,-83.199683,9.138873,Cabagra
Canforro_Finca_Bill_Foster,-83.57954336,9.37272033,CB_Alexander_Skutch
Cusingos,-83.62861,9.33875,CB_Alexander_Skutch
Finca_Elizabeth,-83.61032,9.33135,CB_Alexander_Skutch
Finca_Felipe_Montoya,-83.61355,9.35432,CB_Alexander_Skutch
Finca_Fernando_Brenes,-83.59128222,9.36739868,CB_Alexander_Skutch
Finca_Fernando_Ureña,-83.61583,9.33124,CB_Alexander_Skutch
Finca_Los_Chinchillas,-83.60476,9.37704,CB_Alexander_Skutch
Finca_Playa_Verde,-83.61787,9.35067,CB_Alexander_Skutch
Las_Nubes,-83.59969,9.38798,CB_Alexander_Skutch
Montecarlo_Juan_José,-83.61179,9.35569,CB_Alexander_Skutch
Quizarrá_Terrazas_del_Río,-83.61911,9.34854,CB_Alexander_Skutch
Quizarrá_Ureña,-83.62438,9.33722,CB_Alexander_Skutch
Finca_Bajo_Los_Lezcano,-83.22711,8.940857,CB_Fila_Langusiana
Finca_Chánguena,-83.2077,8.914,CB_Fila_Langusiana
Finca_Fernández,-83.192425,8.933272,CB_Fila_Langusiana
Finca_Jeremy_Chánguena,-83.190278,8.934343,CB_Fila_Langusiana
Finca_La_Bonita,-83.19172,8.91472,CB_Fila_Langusiana
Finca_Las_Cruces,-83.14367144,8.89461284,CB_Fila_Langusiana
Finca_Las_Nubes,-83.16407423,8.91486126,CB_Fila_Langusiana
Finca_Pilón_Barahona,-83.17091,8.90754,CB_Fila_Langusiana
Finca_Pilón_Sergio_Hidalgo,-83.180503,8.907367,CB_Fila_Langusiana
Santa_Lucía,-83.219003,8.895459,CB_Fila_Langusiana
Calle_Mirador,-83.38925,9.26761,CB_Río_Cañas
Cerro Cabecar,-83.370804,9.330951,CB_Río_Cañas
Finca Evelyn,-83.370064,9.259961,CB_Río_Cañas
Finca_Alex_Zúñiga,-83.37112,9.30898,CB_Río_Cañas
Finca_Altamirano,-83.39131,9.26381,CB_Río_Cañas
Finca_Barrantes,-83.384744,9.253864,CB_Río_Cañas
Finca_Canadiense,-83.37958,9.25374,CB_Río_Cañas
Finca_Eduardo_Zúñiga_St._María,-83.37148,9.29141,CB_Río_Cañas
Finca_Efraín_San_Rafael,-83.19172,8.91472,CB_Río_Cañas
Finca_El_Aguacate,-83.374821,9.320199,CB_Río_Cañas
Finca_Everardo_Romero,-83.3715,9.32896,CB_Río_Cañas
Finca_Kenneth_Chaves,-83.37738,9.22863,CB_Río_Cañas
Finca_Los_Chaves,-83.360603,9.23293,CB_Río_Cañas
Finca_Los_Martínez,-83.39608,9.30431,CB_Río_Cañas
Finca_Marco_Jiménez,-83.37646,9.23959,CB_Río_Cañas
Finca_Naranjal,-83.38837,9.26351,CB_Río_Cañas
Finca_Nidia,-83.378643,9.252249,CB_Río_Cañas
Finca_Romero,-83.37061,9.31897,CB_Río_Cañas
Finca_Segura,-83.39158,9.24589,CB_Río_Cañas
Peje,-83.447816,9.162242,CB_Río_Cañas
Amigos_del_Bosque,-83.71708,9.54865,El_Jardín_Siberia
Finca_Don_José_Sendero_La_cueva,-83.73209,9.52869,El_Jardín_Siberia
Finca_Don_Paco,-83.69376,9.50302,El_Jardín_Siberia
Finca_San_Martín,-83.68894,9.54028,El_Jardín_Siberia
Sendero_Eladio,-83.71666,9.54616,El_Jardín_Siberia
Sendero_Las_Monjas,-83.70113,9.53584,El_Jardín_Siberia
Sendero_Las_Orquídeas,-83.72591,9.54828,El_Jardín_Siberia
Sendero_Los_Loritos,-83.72526,9.54163,El_Jardín_Siberia
Cascada_Espavel,-83.11526,9.07872,La_Luchita
Finca_Bethy,-83.117339,9.095082,La_Luchita
Finca_Carlos_Rojas,-83.11463,9.09209,La_Luchita
Finca_HG,-83.11961,9.07634,La_Luchita
Finca_Lázaro-Araya,-83.120759,9.080596,La_Luchita
Finca_Reyes,-83.1146857,9.0916916,La_Luchita
Finca_Xinia,-83.1136078,9.0938602,La_Luchita
Rancho_Amu,-83.1111,9.103341,La_Luchita
Sendero_Catarata,-83.115286,9.079654,La_Luchita
Sendero_Luz,-83.12138,9.08146,La_Luchita
Sendero_Toma_Agua,-83.10855,9.099872,La_Luchita
Finca_Bee_FC,-82.7911,8.89201,Las_Tablas_Guardianes_del_Bosque
Finca_El_Pizote,-82.80985,8.9038,Las_Tablas_Guardianes_del_Bosque
Finca_Fallas,-82.82186,8.8979,Las_Tablas_Guardianes_del_Bosque
Las_Tablas_Medio,-82.74441,8.95531,Las_Tablas_Guardianes_del_Bosque
Las_Tablas_Toma_Acueducto,-82.75059,8.94479,Las_Tablas_Guardianes_del_Bosque
Sendero_Soto,-82.787192,8.890244,Las_Tablas_Guardianes_del_Bosque
Surá_Ariete,-82.75367,8.97569,Las_Tablas_Guardianes_del_Bosque
Surá_Camino,-82.74659,8.95737,Las_Tablas_Guardianes_del_Bosque
Surá_Entrada,-82.75233,8.97173,Las_Tablas_Guardianes_del_Bosque
Finca_Colorado,-83.80902,9.49267,Los_Ángeles_de_Páramo
Finca_Fávalo,-83.80804,9.48365,Los_Ángeles_de_Páramo
Finca_Itabos,-83.80457,9.48021,Los_Ángeles_de_Páramo
Finca_La_Naciente,-83.7963574,9.4724173,Los_Ángeles_de_Páramo
Monte_Cavernas,-83.79241,9.51298,Los_Ángeles_de_Páramo
Sendero_Colorado,-83.804407,9.480213,Los_Ángeles_de_Páramo
Finca_Mario_Olán,-83.225754,9.271502,Salitre
Finca_Roselio,-83.25942,9.217018,Salitre
Finca_Shirleny,-83.265592,9.22194,Salitre
Finca_Xenón_Figueroa,-83.300409,9.19748,Salitre
Finca_Zacarías,-83.246241,9.211494,Salitre
Aurora,-83.585836,9.494753,San_Gerardo_Herradura
Finca_Catalinas_Urán,-83.575407,9.515397,San_Gerardo_Herradura
Finca_Comemaiz,-83.602526,9.511908,San_Gerardo_Herradura
Finca_El_Sauce,-83.617522,9.5291,San_Gerardo_Herradura
Finca_Manantial,-83.617583,9.50946,San_Gerardo_Herradura
Finca_Mirador_Chirripó,-83.597478,9.514758,San_Gerardo_Herradura
Finca_Oldemar,-83.592864,9.516944,San_Gerardo_Herradura
San José de Rivas,-83.645119,9.445091,San_Gerardo_Herradura
Sendero_Acueducto_Cannan,-83.61051,9.456009,San_Gerardo_Herradura
Sendero_Cannan,-83.612091,9.452314,San_Gerardo_Herradura
Cataratas_Kilo,-83.48964437,9.37379291,San_Jerónimo
Finca_Catarata_Nate,-83.5043098,9.36088632,San_Jerónimo
Finca_la_Roca,-83.501217,9.364284,San_Jerónimo
Finca_La_Visual,-83.51436345,9.36011526,San_Jerónimo
Finca_los_Yiguirros,-83.496862,9.351954,San_Jerónimo
Finca_Quirós,-83.4914,9.369845,San_Jerónimo
Finca_Xanadú,-83.508542,9.351638,San_Jerónimo
La Chiripa,-83.486827,9.385761,San_Jerónimo
La_Avioneta,-83.52957,9.35922,San_Jerónimo
La_Minifalda,-83.511889,9.353051,San_Jerónimo
Lagunillas,-83.50017775,9.38325969,San_Jerónimo
Las_Piritas,-83.50721933,9.36442272,San_Jerónimo
Campamento_el_Jilguero,-83.86603347,9.47341305,Savegre_Abajo
Finca_Café_Savegre,-83.85787087,9.43495159,Savegre_Abajo
Finca_El_Cedro,-83.84540563,9.43821509,Savegre_Abajo
Finca_EYA,-83.84539657,9.43080063,Savegre_Abajo
Finca_Granito_de_Oro,-83.84403184,9.44407122,Savegre_Abajo
Finca_la_Playa,-83.83895713,9.43900945,Savegre_Abajo
Finca_Leila,-83.84894836,9.44398138,Savegre_Abajo
Finca_Mena_Mata,-83.84583242,9.45071374,Savegre_Abajo
Finca_Nino_Savegre,-83.83767415,9.43535377,Savegre_Abajo
Finca_VA,-83.87542903,9.45525754,Savegre_Abajo
Finca_Zopilote,-83.8474639,9.43470807,Savegre_Abajo
Finca_Los_Colibríes,-83.06059184,9.12093381,Tres_Colinas
Sendero_Catarata,-83.07566258,9.11479128,Tres_Colinas
Sendero_Las_Huacas,-83.07263163,9.11776376,Tres_Colinas
Sendero_Las_Magnolias,-83.07042034,9.11870246,Tres_Colinas
Camino_Palmital,-83.277346,9.241075,Ujarrás
Cerro_Dúrika,-83.30110772,9.37973677,Ujarrás
Finca_ADI,-83.34117,9.30888,Ujarrás
Finca_Arcadio,-83.339988,9.266703,Ujarrás
Finca_Asociación,-83.33447068,9.26592486,Ujarrás
Finca_Emiliano,-83.273059,9.276941,Ujarrás
Finca_Hermógenes_Herrera_Santa_Cruz,-83.323487,9.225829,Ujarrás
Finca_Jacinto,-83.33087,9.236327,Ujarrás
Finca_Mayorga,-83.28678037,9.2516175,Ujarrás
Finca_Modesto,-83.282091,9.250787,Ujarrás
Finca_Santa_Rosa_Mayorga,-83.35693,9.28364,Ujarrás
Finca_Vargas,-83.25494,9.31415,Ujarrás
La_Laguna,-83.27670553,9.33041538,Ujarrás
Puente_Ceibo,-83.31452698,9.21628288,Ujarrás
Santa_María,-83.35188,9.28899,Ujarrás
Santa_Rosa,-83.35415,9.25394,Ujarrás
Sipar,-83.259076,9.259308,Ujarrás
Cabañas_Palmira,-82.89087581,8.93666403,Unión_Zonal_Pittier
Fila_Naranjo,-82.961923,8.925744,Unión_Zonal_Pittier
Finca_Campos,-82.97734646,8.9084679,Unión_Zonal_Pittier
Finca_de_Sueños,-82.95835837,8.92440675,Unión_Zonal_Pittier
Finca_Familia_Méndez,-82.91789041,8.92662502,Unión_Zonal_Pittier
Finca_La_Hermosa,-82.95484,8.95389,Unión_Zonal_Pittier
Finca_Monterrey,-82.98288417,8.90456799,Unión_Zonal_Pittier
